property_id,price,sqft,beds,baths,street,city,state,zip_code,latitude,longitude,days_on_market,status,list_date,photos,zillow_link,is_good_flip,roi
1001,425000,2240,4,2.5,"8452 Gordon Ct","Plymouth","MN",55446,45.0412,-93.4558,45,"Active","2024-05-01","https://ap.rdcpix.com/6b6a0b5931dd7c4d0f4b6dc4dce3c8d6l-m3203251265od-w1024_h768.jpg","https://www.realtor.com/realestateandhomes-detail/8452-Gordon-Ct_Plymouth_MN_55446",false,0
1002,399900,2100,4,2,"6734 Lakewood Dr","Plymouth","MN",55446,45.0389,-93.4601,30,"Active","2024-05-15","https://ap.rdcpix.com/9f38c1bead9a0f58bcd203d0842efde4l-m3751361455od-w1024_h768.jpg","https://www.realtor.com/realestateandhomes-detail/6734-Lakewood-Dr_Plymouth_MN_55446",true,15
1003,449900,2400,4,2.5,"9123 Evergreen Ln","Plymouth","MN",55446,45.0434,-93.4512,60,"Active","2024-04-15","https://ap.rdcpix.com/1f38c1bead9a0f58bcd203d0842efde4l-m3751361455od-w1024_h768.jpg","https://www.realtor.com/realestateandhomes-detail/9123-Evergreen-Ln_Plymouth_MN_55446",false,0
1004,415000,2150,4,2,"7845 Maple Grove Rd","Plymouth","MN",55446,45.0401,-93.4589,15,"Active","2024-05-20","https://ap.rdcpix.com/2f38c1bead9a0f58bcd203d0842efde4l-m3751361455od-w1024_h768.jpg","https://www.realtor.com/realestateandhomes-detail/7845-Maple-Grove-Rd_Plymouth_MN_55446",true,12
1005,435000,2300,4,2.5,"5678 Oakwood Ter","Plymouth","MN",55446,45.0423,-93.4534,25,"Active","2024-05-10","https://ap.rdcpix.com/3f38c1bead9a0f58bcd203d0842efde4l-m3751361455od-w1024_h768.jpg","https://www.realtor.com/realestateandhomes-detail/5678-Oakwood-Ter_Plymouth_MN_55446",false,0  